[
  {
    "name": "Chur Kantonsspital",
    "city": "Chur",
    "region": "GR",
    "latitude": 46.86113,
    "longitude": 9.54171,
    "thumbnail": "https://backend.roundshot.com/cams/151/thumbnail",
    "fullsize": "https://backend.roundshot.com/cams/151/500",
    "link": "https://churtourismus.roundshot.com/",
    "panorama": true
  },
  {
    "name": "Brambrüesch",
    "city": "Brambrüesch",
    "region": "GR",
    "latitude": 46.81233,
    "longitude": 9.50279,
    "thumbnail": "https://backend.roundshot.com/cams/587/thumbnail",
    "fullsize": "https://backend.roundshot.com/cams/587/500",
    "link": "https://brambruesch.roundshot.com/",
    "panorama": true
  },
  {
    "name": "Lenzerheide Scalottas",
    "city": "Lenzerheide",
    "region": "GR",
    "latitude": 46.72188,
    "longitude": 9.51111,
    "thumbnail": "https://backend.roundshot.com/cams/54/thumbnail",
    "fullsize": "https://backend.roundshot.com/cams/54/500",
    "link": "https://lenzerheide.roundshot.com/pizscalottas/",
    "panorama": true
  },
  {
    "name": "Juf",
    "city": "Avers",
    "region": "GR",
    "latitude": 46.44545,
    "longitude": 9.58016,
    "thumbnail": "https://webcam.jufferien.ch/current_links.jpg",
    "fullsize": "https://webcam.jufferien.ch/current_links.jpg",
    "link": "https://webcam.jufferien.ch/current_links.jpg",
    "panorama": false
  },
  {
    "name": "Flims Bargis",
    "city": "Flims",
    "region": "GR",
    "latitude": 46.85423,
    "longitude": 9.32656,
    "thumbnail": "https://backend.roundshot.com/cams/1359/thumbnail",
    "fullsize": "https://backend.roundshot.com/cams/1359/500",
    "link": "https://laax.roundshot.com/bargis",
    "panorama": true
  },
  {
    "name": "Laax Crap Sogn Gion",
    "city": "Laax",
    "region": "GR",
    "latitude": 46.83454,
    "longitude": 9.21615,
    "thumbnail": "https://backend.roundshot.com/cams/44/thumbnail",
    "fullsize": "https://backend.roundshot.com/cams/44/500",
    "link": "https://laax.roundshot.com/crap-sogn-gion-park",
    "panorama": true
  },
  {
    "name": "Maighelshütte",
    "city": "Tujetsch",
    "region": "GR",
    "latitude": 46.62532,
    "longitude": 8.68993,
    "thumbnail": "https://sedruncam.ch/maighels/webcam.jpg",
    "fullsize": "https://sedruncam.ch/maighels/webcam.jpg",
    "link": "https://sedruncam.ch/maighels/webcam.jpg",
    "panorama": false
  },
  {
    "name": "Avers Bregalgatal",
    "city": "Avers",
    "region": "GR",
    "latitude": 46.4512,
    "longitude": 9.55387,
    "thumbnail": "https://www.avers.ch/webcam/skilift-avers-links.jpg",
    "fullsize": "https://www.avers.ch/webcam/skilift-avers-links.jpg",
    "link": "https://www.avers.ch/webcam/skilift-avers-links.jpg",
    "panorama": false
  },
  {
    "name": "Sarn Dultschinas",
    "city": "Heinzenberg",
    "region": "GR",
    "latitude": 46.72434,
    "longitude": 9.38402,
    "thumbnail": "https://d37dhr5745n0y2.cloudfront.net/webcam_latest/495529591_original_latest.jpg",
    "fullsize": "https://d37dhr5745n0y2.cloudfront.net/webcam_latest/495529591_original_latest.jpg",
    "link": "https://d37dhr5745n0y2.cloudfront.net/webcam_latest/495529591_original_latest.jpg",
    "panorama": false
  },
  {
    "name": "Splügen Tanatzhöhe",
    "city": "Splügen",
    "region": "GR",
    "latitude": 46.5305,
    "longitude": 9.31453,
    "thumbnail": "https://backend.roundshot.com/cams/125/thumbnail",
    "fullsize": "https://backend.roundshot.com/cams/125/500",
    "link": "https://spluegen.roundshot.com/",
    "panorama": true
  }
]
